{
  "GameEntry": [
    {
      "id": "0",
      "originalDate": "2017-09-15",
      "originalTime": "7:35PM",
      "delayedOrPostponedReason": null,
      "date": null,
      "time": null,
      "awayTeam": {
        "City": "New York",
        "Name": "Mets",
        "Abbreviation": "NYM"
      },
      "homeTeam": {
        "City": "Atlanta",
        "Name": "Braves",
        "Abbreviation": "ATL"
      },
      "location": "Suntrust Park"
    },
    {
      "id": "1",
      "originalDate": "2017-09-16",
      "originalTime": "7:10PM",
      "delayedOrPostponedReason": null,
      "date": null,
      "time": null,
      "awayTeam": {
        "City": "New York",
        "Name": "Mets",
        "Abbreviation": "NYM"
      },
      "homeTeam": {
        "City": "Atlanta",
        "Name": "Braves",
        "Abbreviation": "ATL"
      },
      "location": "Suntrust Park"
    },
    {
      "id": "2",
      "originalDate": "2017-09-17",
      "originalTime": "7:35PM",
      "delayedOrPostponedReason": null,
      "date": null,
      "time": null,
      "awayTeam": {
        "City": "New York",
        "Name": "Mets",
        "Abbreviation": "NYM"
      },
      "homeTeam": {
        "City": "Atlanta",
        "Name": "Braves",
        "Abbreviation": "ATL"
      },
      "location": "Suntrust Park"
    },
    {
      "id": "3",
      "originalDate": "2017-09-19",
      "originalTime": "7:35PM",
      "delayedOrPostponedReason": null,
      "date": null,
      "time": null,
      "awayTeam": {
        "City": "Washington",
        "Name": "Nationals",
        "Abbreviation": "WSH"
      },
      "homeTeam": {
        "City": "Atlanta",
        "Name": "Braves",
        "Abbreviation": "ATL"
      },
      "location": "Suntrust Park"
    },
    {
      "id": "4",
      "originalDate": "2017-09-20",
      "originalTime": "7:35PM",
      "delayedOrPostponedReason": null,
      "date": null,
      "time": null,
      "awayTeam": {
        "City": "Washington",
        "Name": "Nationals",
        "Abbreviation": "WSH"
      },
      "homeTeam": {
        "City": "Atlanta",
        "Name": "Braves",
        "Abbreviation": "ATL"
      },
      "location": "Suntrust Park"
    },
    {
      "id": "5",
      "originalDate": "2017-09-21",
      "originalTime": "7:35PM",
      "delayedOrPostponedReason": null,
      "date": null,
      "time": null,
      "awayTeam": {
        "City": "Washington",
        "Name": "Nationals",
        "Abbreviation": "WSH"
      },
      "homeTeam": {
        "City": "Atlanta",
        "Name": "Braves",
        "Abbreviation": "ATL"
      },
      "location": "Suntrust Park"
    },
    {
      "id": "6",
      "originalDate": "2017-09-22",
      "originalTime": "7:35PM",
      "delayedOrPostponedReason": null,
      "date": null,
      "time": null,
      "awayTeam": {
        "City": "Philadelphia",
        "Name": "Phillies",
        "Abbreviation": "PHL"
      },
      "homeTeam": {
        "City": "Atlanta",
        "Name": "Braves",
        "Abbreviation": "ATL"
      },
      "location": "Suntrust Park"
    },
    {
      "id": "7",
      "originalDate": "2017-09-23",
      "originalTime": "7:10PM",
      "delayedOrPostponedReason": null,
      "date": null,
      "time": null,
      "awayTeam": {
        "City": "Philadelphia",
        "Name": "Phillies",
        "Abbreviation": "PHL"
      },
      "homeTeam": {
        "City": "Atlanta",
        "Name": "Braves",
        "Abbreviation": "ATL"
      },
      "location": "Suntrust Park"
    },
    {
      "id": "8",
      "originalDate": "2017-09-24",
      "originalTime": "1:35PM",
      "delayedOrPostponedReason": null,
      "date": null,
      "time": null,
      "awayTeam": {
        "City": "Philadelphia",
        "Name": "Phillies",
        "Abbreviation": "PHL"
      },
      "homeTeam": {
        "City": "Atlanta",
        "Name": "Braves",
        "Abbreviation": "ATL"
      },
      "location": "Suntrust Park"
    },
    {
      "id": "9",
      "originalDate": "2017-09-25",
      "originalTime": "4:10PM",
      "delayedOrPostponedReason": null,
      "date": null,
      "time": null,
      "awayTeam": {
        "City": "New York",
        "Name": "Mets",
        "Abbreviation": "NYM"
      },
      "homeTeam": {
        "City": "Atlanta",
        "Name": "Braves",
        "Abbreviation": "ATL"
      },
      "location": "Suntrust Park"
    },
    {
      "id": "10",
      "originalDate": "2017-09-25",
      "originalTime": "7:10PM",
      "delayedOrPostponedReason": null,
      "date": null,
      "time": null,
      "awayTeam": {
        "City": "New York",
        "Name": "Mets",
        "Abbreviation": "NYM"
      },
      "homeTeam": {
        "City": "Atlanta",
        "Name": "Braves",
        "Abbreviation": "ATL"
      },
      "location": "Suntrust Park"
    },
    {
      "id": "11",
      "originalDate": "2017-09-26",
      "originalTime": "7:10PM",
      "delayedOrPostponedReason": null,
      "date": null,
      "time": null,
      "awayTeam": {
        "City": "New York",
        "Name": "Mets",
        "Abbreviation": "NYM"
      },
      "homeTeam": {
        "City": "Atlanta",
        "Name": "Braves",
        "Abbreviation": "ATL"
      },
      "location": "Suntrust Park"
    },
    {
      "id": "12",
      "originalDate": "2017-09-27",
      "originalTime": "7:10PM",
      "delayedOrPostponedReason": null,
      "date": null,
      "time": null,
      "awayTeam": {
        "City": "New York",
        "Name": "Mets",
        "Abbreviation": "NYM"
      },
      "homeTeam": {
        "City": "Atlanta",
        "Name": "Braves",
        "Abbreviation": "ATL"
      },
      "location": "Suntrust Park"
    },
    {
      "id": "13",
      "originalDate": "2017-09-28",
      "originalTime": "7:10PM",
      "delayedOrPostponedReason": null,
      "date": null,
      "time": null,
      "awayTeam": {
        "City": "Miami",
        "Name": "Marlins",
        "Abbreviation": "MIA"
      },
      "homeTeam": {
        "City": "Atlanta",
        "Name": "Braves",
        "Abbreviation": "ATL"
      },
      "location": "Suntrust Park"
    },
    {
      "id": "14",
      "originalDate": "2017-09-29",
      "originalTime": "7:10PM",
      "delayedOrPostponedReason": null,
      "date": null,
      "time": null,
      "awayTeam": {
        "City": "Miami",
        "Name": "Marlins",
        "Abbreviation": "MIA"
      },
      "homeTeam": {
        "City": "Atlanta",
        "Name": "Braves",
        "Abbreviation": "ATL"
      },
      "location": "Suntrust Park"
    },
    {
      "id": "15",
      "originalDate": "2017-09-130",
      "originalTime": "7:10PM",
      "delayedOrPostponedReason": null,
      "date": null,
      "time": null,
      "awayTeam": {
        "City": "Miami",
        "Name": "Marlins",
        "Abbreviation": "MIA"
      },
      "homeTeam": {
        "City": "Atlanta",
        "Name": "Braves",
        "Abbreviation": "ATL"
      },
      "location": "Suntrust Park"
    }
  ]
}
