{
  "fullgameschedule": {
    "gameentry": [
      {
        "id": "0",
        "originalDate": "2017-09-15",
        "originalTime": "7:35PM",
        "delayedOrPostponedReason": null,
        "date": null,
        "time": null,
        "awayTeam": {
          "City": "New York",
          "Name": "Mets",
          "Abbreviation": "NYM"
        },
        "homeTeam": {
          "City": "Atlanta",
          "Name": "Braves",
          "Abbreviation": "ATL"
        },
        "location": "Suntrust Park"
      },
      {
        "id": "1",
        "originalDate": "2017-09-16",
        "originalTime": "7:10PM",
        "delayedOrPostponedReason": null,
        "date": null,
        "time": null,
        "awayTeam": {
          "City": "New York",
          "Name": "Mets",
          "Abbreviation": "NYM"
        },
        "homeTeam": {
          "City": "Atlanta",
          "Name": "Braves",
          "Abbreviation": "ATL"
        },
        "location": "Suntrust Park"
      },
      {
        "id": "2",
        "originalDate": "2017-09-17",
        "originalTime": "7:35PM",
        "delayedOrPostponedReason": null,
        "date": null,
        "time": null,
        "awayTeam": {
          "City": "New York",
          "Name": "Mets",
          "Abbreviation": "NYM"
        },
        "homeTeam": {
          "City": "Atlanta",
          "Name": "Braves",
          "Abbreviation": "ATL"
        },
        "location": "Suntrust Park"
      },
      {
        "id": "3",
        "originalDate": "2017-09-15",
        "originalTime": "7:35PM",
        "delayedOrPostponedReason": null,
        "date": null,
        "time": null,
        "awayTeam": {
          "City": "Washington",
          "Name": "Nationals",
          "Abbreviation": "WSH"
        },
        "homeTeam": {
          "City": "Atlanta",
          "Name": "Braves",
          "Abbreviation": "ATL"
        },
        "location": "Suntrust Park"
      },
      {
        "id": "0",
        "originalDate": "2017-09-15",
        "originalTime": "7:35PM",
        "delayedOrPostponedReason": null,
        "date": null,
        "time": null,
        "awayTeam": {
          "City": "New York",
          "Name": "Mets",
          "Abbreviation": "NYY"
        },
        "homeTeam": {
          "City": "Atlanta",
          "Name": "Braves",
          "Abbreviation": "ATL"
        },
        "location": "Suntrust Park"
      }
    ]}}